<?xml version="1.0" encoding="utf-8"?>
<ArrayOfVolunteer>
  <Volunteer>
    <Id>230649758</Id>
    <Name>Lior Ben-David</Name>
    <Phone>0501234567</Phone>
    <Email>0501234567@gmail.com</Email>
    <IsActive>true</IsActive>
    <Role>Volunteer</Role>
    <Password>x5lRirYWFwUTj0WNcQraHd2jdOBmaEXm51rbsW9AdPc=</Password>
    <Address>9 Weizman St, Tel Aviv, Israel</Address>
    <Latitude>32.1094</Latitude>
    <Longitude>34.78</Longitude>
    <LargestDistance>0</LargestDistance>
    <DistanceType>Air</DistanceType>
  </Volunteer>
  <Volunteer>
    <Id>978520443</Id>
    <Name>Batya Hirsch</Name>
    <Phone>0529876543</Phone>
    <Email>0529876543@gmail.com</Email>
    <IsActive>true</IsActive>
    <Role>Manager</Role>
    <Password>FxmBjt4wiWfyJuUMXoRsqOQyq+ho1+I/OAMfYhi3STk=</Password>
    <Address>40 Jabotinsky St, Petah Tikva, Israel</Address>
    <Latitude>32.085</Latitude>
    <Longitude>34.8778</Longitude>
    <LargestDistance>5</LargestDistance>
    <DistanceType>Air</DistanceType>
  </Volunteer>
  <Volunteer>
    <Id>900053141</Id>
    <Name>Shimon Farkash</Name>
    <Phone>0541239876</Phone>
    <Email>0541239876@gmail.com</Email>
    <IsActive>true</IsActive>
    <Role>Volunteer</Role>
    <Password>dbta7tKnDujJnIHxb341850a33JNfhc2PZIX7xjWXfY=</Password>
    <Address>Ein Kerem 5, Jerusalem, Israel</Address>
    <Latitude>31.7732</Latitude>
    <Longitude>35.2037</Longitude>
    <LargestDistance>7</LargestDistance>
    <DistanceType>Air</DistanceType>
  </Volunteer>
  <Volunteer>
    <Id>468644117</Id>
    <Name>Tzvi Berkovitz</Name>
    <Phone>0559871234</Phone>
    <Email>0559871234@gmail.com</Email>
    <IsActive>true</IsActive>
    <Role>Volunteer</Role>
    <Password>d9rGBZ+Xx/L/QVgYv1DYbEUvFFRhRJNOFA+0zaCFW60=</Password>
    <Address>Tel Hashomer 6, Ramat Gan, Israel</Address>
    <Latitude>32.0735</Latitude>
    <Longitude>34.8011</Longitude>
    <LargestDistance>2</LargestDistance>
    <DistanceType>Air</DistanceType>
  </Volunteer>
  <Volunteer>
    <Id>538892415</Id>
    <Name>Meir Goldfarb</Name>
    <Phone>0533217654</Phone>
    <Email>0533217654@gmail.com</Email>
    <IsActive>true</IsActive>
    <Role>Volunteer</Role>
    <Password>KHyIZM94DuQAejOVLhTnRRQQSfdxFWgL0QKvQOVq488=</Password>
    <Address>20 Yirmiyahu St, Jerusalem, Israel</Address>
    <Latitude>31.7683</Latitude>
    <Longitude>35.1804</Longitude>
    <LargestDistance>6</LargestDistance>
    <DistanceType>Air</DistanceType>
  </Volunteer>
  <Volunteer>
    <Id>779879527</Id>
    <Name>Bat-Chen Shalom</Name>
    <Phone>0504561239</Phone>
    <Email>0504561239@gmail.com</Email>
    <IsActive>true</IsActive>
    <Role>Volunteer</Role>
    <Password>kpIyVnw1sdZmOYGnlJy6i058okSXHJw6RTElPFQYNRo=</Password>
    <Address>128 Kaplan St, Tel Aviv, Israel</Address>
    <Latitude>32.081</Latitude>
    <Longitude>34.7707</Longitude>
    <LargestDistance>0</LargestDistance>
    <DistanceType>Air</DistanceType>
  </Volunteer>
  <Volunteer>
    <Id>419176615</Id>
    <Name>Yonatan Spector</Name>
    <Phone>0548551329</Phone>
    <Email>0548551329@gmail.com</Email>
    <IsActive>true</IsActive>
    <Role>Volunteer</Role>
    <Password>kPpyqgkd7gJFTyw4pGdVsj7xZ1PqVWbnaMRjQkh+dno=</Password>
    <Address>65 Jabotinsky St, Kfar Saba, Israel</Address>
    <Latitude>32.182</Latitude>
    <Longitude>34.8999</Longitude>
    <LargestDistance>3</LargestDistance>
    <DistanceType>Air</DistanceType>
  </Volunteer>
  <Volunteer>
    <Id>565462884</Id>
    <Name>Erez Gur</Name>
    <Phone>0548425138</Phone>
    <Email>0548425138@gmail.com</Email>
    <IsActive>true</IsActive>
    <Role>Volunteer</Role>
    <Password>bxI04laZuRbark2H+NmXyOnzsvyqof4afuG1brseMNU=</Password>
    <Address>Barzilai 6, Ashkelon, Israel</Address>
    <Latitude>31.67</Latitude>
    <Longitude>34.5675</Longitude>
    <LargestDistance>5</LargestDistance>
    <DistanceType>Air</DistanceType>
  </Volunteer>
  <Volunteer>
    <Id>728770827</Id>
    <Name>Gal Zohar</Name>
    <Phone>0583282450</Phone>
    <Email>0583282450@gmail.com</Email>
    <IsActive>true</IsActive>
    <Role>Volunteer</Role>
    <Password>/q1exlDSPegFqt4YPSUrICms9Xxz58B3QfAa21Ishzs=</Password>
    <Address>Ziv 6, Safed, Israel</Address>
    <Latitude>32.9674</Latitude>
    <Longitude>35.4884</Longitude>
    <LargestDistance>1</LargestDistance>
    <DistanceType>Air</DistanceType>
  </Volunteer>
  <Volunteer>
    <Id>631800281</Id>
    <Name>Rachel Nachman</Name>
    <Phone>0583232333</Phone>
    <Email>0583232333@gmail.com</Email>
    <IsActive>true</IsActive>
    <Role>Volunteer</Role>
    <Password>bJ8lAzHXyobaAjaAVW1zYV0CIKJuIaw3ufM1qrLxkPU=</Password>
    <Address>11 Beilinson St, Tel Aviv, Israel</Address>
    <Latitude>32.084</Latitude>
    <Longitude>34.7746</Longitude>
    <LargestDistance>5</LargestDistance>
    <DistanceType>Air</DistanceType>
  </Volunteer>
  <Volunteer>
    <Id>279823207</Id>
    <Name>Yarden Levy</Name>
    <Phone>0548482197</Phone>
    <Email>0548482197@gmail.com</Email>
    <IsActive>true</IsActive>
    <Role>Volunteer</Role>
    <Password>3lgLs8Fi9c0ZY/7nfw80ZsNjnSVgMVIUkBQ3z1O+3Jo=</Password>
    <Address>13 Azrieli St, Netanya, Israel</Address>
    <Latitude>32.3143</Latitude>
    <Longitude>34.8446</Longitude>
    <LargestDistance>2</LargestDistance>
    <DistanceType>Air</DistanceType>
  </Volunteer>
  <Volunteer>
    <Id>986918522</Id>
    <Name>Doron Klein</Name>
    <Phone>0583265120</Phone>
    <Email>0583265120@gmail.com</Email>
    <IsActive>true</IsActive>
    <Role>Volunteer</Role>
    <Password>kn1pxdFy5DoLRdmOlfzIia3EiNmOu9q0kIxSAfB1OFQ=</Password>
    <Address>2 Kalay St, Haifa, Israel</Address>
    <Latitude>32.7872</Latitude>
    <Longitude>34.9796</Longitude>
    <LargestDistance>3</LargestDistance>
    <DistanceType>Air</DistanceType>
  </Volunteer>
  <Volunteer>
    <Id>647104389</Id>
    <Name>Yulia Shaked</Name>
    <Phone>0548533173</Phone>
    <Email>0548533173@gmail.com</Email>
    <IsActive>true</IsActive>
    <Role>Volunteer</Role>
    <Password>8TVgXyewElBhAMIfvzvHJ6hPhguVCmyKLSL1HUdtViE=</Password>
    <Address>11 Wolfson St, Holon, Israel</Address>
    <Latitude>32.0167</Latitude>
    <Longitude>34.7673</Longitude>
    <LargestDistance>6</LargestDistance>
    <DistanceType>Air</DistanceType>
  </Volunteer>
  <Volunteer>
    <Id>556649580</Id>
    <Name>Hila Shulman</Name>
    <Phone>0583292455</Phone>
    <Email>0583292455@gmail.com</Email>
    <IsActive>true</IsActive>
    <Role>Volunteer</Role>
    <Password>FanyQNx8w4CXZZS/WdyDLQUhThw0pZEU4WRekhYrnIQ=</Password>
    <Address>12 Bialik St, Ashdod, Israel</Address>
    <Latitude>31.8015</Latitude>
    <Longitude>34.6414</Longitude>
    <LargestDistance>2</LargestDistance>
    <DistanceType>Air</DistanceType>
  </Volunteer>
  <Volunteer>
    <Id>455758649</Id>
    <Name>Avigail Frankel</Name>
    <Phone>0583262639</Phone>
    <Email>0583262639@gmail.com</Email>
    <IsActive>true</IsActive>
    <Role>Volunteer</Role>
    <Password>6G/LqTOHP50UDBOYNA+17DkrM6NIC34W9/SunT6CIyk=</Password>
    <Address>17 Heichal Shlomo St, Haifa, Israel</Address>
    <Latitude>32.7682</Latitude>
    <Longitude>34.9762</Longitude>
    <LargestDistance>5</LargestDistance>
    <DistanceType>Air</DistanceType>
  </Volunteer>
</ArrayOfVolunteer>