<?xml version="1.0" encoding="utf-8"?>
<ArrayOfVolunteer>
  <Volunteer>
    <Id>345810543</Id>
    <Name>Aviva Rose</Name>
    <Phone>0548551329</Phone>
    <Email>bracharosenfeld@gmail.com</Email>
    <IsActive>true</IsActive>
    <Role>Manager</Role>
    <Password>zGsNLt/FRX6LwGv7IDfy1/HbMekQTl723Pw2z698uGc=</Password>
    <Address>druk 58 ramat shlomo jerusalem israel</Address>
    <Latitude>31.8139395</Latitude>
    <Longitude>35.216089</Longitude>
    <LargestDistance>10</LargestDistance>
    <DistanceType>Air</DistanceType>
  </Volunteer>
  <Volunteer>
    <Id>347379810</Id>
    <Name>Odel Shemesh</Name>
    <Phone>0548482197</Phone>
    <Email>odel@gmail.com</Email>
    <IsActive>true</IsActive>
    <Role>Volunteer</Role>
    <Password>MB73wT/yc/yi9w1cyRJwuCdxuz5N1Rf0SsWk+oWT0ck=</Password>
    <Address>druk 58 ramat shlomo jerusalem israel</Address>
    <Latitude>31.8139395</Latitude>
    <Longitude>35.216089</Longitude>
    <LargestDistance>10</LargestDistance>
    <DistanceType>Air</DistanceType>
  </Volunteer>
  <Volunteer>
    <Id>612047043</Id>
    <Name>Lior Ben-David</Name>
    <Phone>0501234567</Phone>
    <Email>0501234567@gmail.com</Email>
    <IsActive>true</IsActive>
    <Role>Volunteer</Role>
    <Password>MB73wT/yc/yi9w1cyRJwuCdxuz5N1Rf0SsWk+oWT0ck=</Password>
    <Address>9 Weizman St, Tel Aviv</Address>
    <Latitude>32.0853</Latitude>
    <Longitude>34.7818</Longitude>
    <LargestDistance>2</LargestDistance>
    <DistanceType>Air</DistanceType>
  </Volunteer>
  <Volunteer>
    <Id>360419907</Id>
    <Name>Batya Hirsch</Name>
    <Phone>0529876543</Phone>
    <Email>0529876543@gmail.com</Email>
    <IsActive>true</IsActive>
    <Role>Volunteer</Role>
    <Password>FxmBjt4wiWfyJuUMXoRsqOQyq+ho1+I/OAMfYhi3STk=</Password>
    <Address>40 Jabotinsky St, Petah Tikva</Address>
    <Latitude>32.0889</Latitude>
    <Longitude>34.8864</Longitude>
    <LargestDistance>3</LargestDistance>
    <DistanceType>Air</DistanceType>
  </Volunteer>
  <Volunteer>
    <Id>439443060</Id>
    <Name>Shimon Farkash</Name>
    <Phone>0541239876</Phone>
    <Email>0541239876@gmail.com</Email>
    <IsActive>true</IsActive>
    <Role>Volunteer</Role>
    <Password>dbta7tKnDujJnIHxb341850a33JNfhc2PZIX7xjWXfY=</Password>
    <Address>5 Ein Kerem St, Jerusalem</Address>
    <Latitude>31.7732</Latitude>
    <Longitude>35.2037</Longitude>
    <LargestDistance>6</LargestDistance>
    <DistanceType>Air</DistanceType>
  </Volunteer>
  <Volunteer>
    <Id>327712063</Id>
    <Name>Tzvi Berkovitz</Name>
    <Phone>0559871234</Phone>
    <Email>0559871234@gmail.com</Email>
    <IsActive>true</IsActive>
    <Role>Volunteer</Role>
    <Password>d9rGBZ+Xx/L/QVgYv1DYbEUvFFRhRJNOFA+0zaCFW60=</Password>
    <Address>6 Tel Hashomer St, Ramat Gan</Address>
    <Latitude>32.0735</Latitude>
    <Longitude>34.8011</Longitude>
    <LargestDistance>3</LargestDistance>
    <DistanceType>Air</DistanceType>
  </Volunteer>
  <Volunteer>
    <Id>429272552</Id>
    <Name>Meir Goldfarb</Name>
    <Phone>0533217654</Phone>
    <Email>0533217654@gmail.com</Email>
    <IsActive>true</IsActive>
    <Role>Volunteer</Role>
    <Password>KHyIZM94DuQAejOVLhTnRRQQSfdxFWgL0QKvQOVq488=</Password>
    <Address>20 Yirmiyahu St, Jerusalem</Address>
    <Latitude>31.7683</Latitude>
    <Longitude>35.1804</Longitude>
    <LargestDistance>2</LargestDistance>
    <DistanceType>Air</DistanceType>
  </Volunteer>
  <Volunteer>
    <Id>820042141</Id>
    <Name>Bat-Chen Shalom</Name>
    <Phone>0504561239</Phone>
    <Email>0504561239@gmail.com</Email>
    <IsActive>true</IsActive>
    <Role>Volunteer</Role>
    <Password>kpIyVnw1sdZmOYGnlJy6i058okSXHJw6RTElPFQYNRo=</Password>
    <Address>128 Kaplan St, Tel Aviv</Address>
    <Latitude>32.081</Latitude>
    <Longitude>34.7707</Longitude>
    <LargestDistance>4</LargestDistance>
    <DistanceType>Air</DistanceType>
  </Volunteer>
  <Volunteer>
    <Id>432079309</Id>
    <Name>Yonatan Spector</Name>
    <Phone>0548551329</Phone>
    <Email>0548551329@gmail.com</Email>
    <IsActive>true</IsActive>
    <Role>Volunteer</Role>
    <Password>kPpyqgkd7gJFTyw4pGdVsj7xZ1PqVWbnaMRjQkh+dno=</Password>
    <Address>65 Jabotinsky St, Kfar Saba</Address>
    <Latitude>32.1803</Latitude>
    <Longitude>34.9066</Longitude>
    <LargestDistance>1</LargestDistance>
    <DistanceType>Air</DistanceType>
  </Volunteer>
  <Volunteer>
    <Id>422504811</Id>
    <Name>Erez Gur</Name>
    <Phone>0548425138</Phone>
    <Email>0548425138@gmail.com</Email>
    <IsActive>true</IsActive>
    <Role>Volunteer</Role>
    <Password>bxI04laZuRbark2H+NmXyOnzsvyqof4afuG1brseMNU=</Password>
    <Address>6 Barzilai St, Ashkelon</Address>
    <Latitude>31.67</Latitude>
    <Longitude>34.5715</Longitude>
    <LargestDistance>4</LargestDistance>
    <DistanceType>Air</DistanceType>
  </Volunteer>
  <Volunteer>
    <Id>188112239</Id>
    <Name>Gal Zohar</Name>
    <Phone>0583282450</Phone>
    <Email>0583282450@gmail.com</Email>
    <IsActive>true</IsActive>
    <Role>Volunteer</Role>
    <Password>/q1exlDSPegFqt4YPSUrICms9Xxz58B3QfAa21Ishzs=</Password>
    <Address>6 Ziv St, Safed</Address>
    <Latitude>32.9674</Latitude>
    <Longitude>35.4884</Longitude>
    <LargestDistance>3</LargestDistance>
    <DistanceType>Air</DistanceType>
  </Volunteer>
  <Volunteer>
    <Id>720115583</Id>
    <Name>Rachel Nachman</Name>
    <Phone>0583232333</Phone>
    <Email>0583232333@gmail.com</Email>
    <IsActive>true</IsActive>
    <Role>Volunteer</Role>
    <Password>bJ8lAzHXyobaAjaAVW1zYV0CIKJuIaw3ufM1qrLxkPU=</Password>
    <Address>11 Beilinson St, Tel Aviv</Address>
    <Latitude>32.084</Latitude>
    <Longitude>34.7746</Longitude>
    <LargestDistance>4</LargestDistance>
    <DistanceType>Air</DistanceType>
  </Volunteer>
  <Volunteer>
    <Id>632205316</Id>
    <Name>Yarden Levy</Name>
    <Phone>0548482197</Phone>
    <Email>0548482197@gmail.com</Email>
    <IsActive>true</IsActive>
    <Role>Volunteer</Role>
    <Password>3lgLs8Fi9c0ZY/7nfw80ZsNjnSVgMVIUkBQ3z1O+3Jo=</Password>
    <Address>13 Azrieli St, Netanya</Address>
    <Latitude>32.3215</Latitude>
    <Longitude>34.8532</Longitude>
    <LargestDistance>0</LargestDistance>
    <DistanceType>Air</DistanceType>
  </Volunteer>
  <Volunteer>
    <Id>154707954</Id>
    <Name>Doron Klein</Name>
    <Phone>0583265120</Phone>
    <Email>0583265120@gmail.com</Email>
    <IsActive>true</IsActive>
    <Role>Volunteer</Role>
    <Password>kn1pxdFy5DoLRdmOlfzIia3EiNmOu9q0kIxSAfB1OFQ=</Password>
    <Address>2 Kalay St, Haifa</Address>
    <Latitude>32.794</Latitude>
    <Longitude>34.9896</Longitude>
    <LargestDistance>1</LargestDistance>
    <DistanceType>Air</DistanceType>
  </Volunteer>
  <Volunteer>
    <Id>544058274</Id>
    <Name>Yulia Shaked</Name>
    <Phone>0548533173</Phone>
    <Email>0548533173@gmail.com</Email>
    <IsActive>true</IsActive>
    <Role>Volunteer</Role>
    <Password>8TVgXyewElBhAMIfvzvHJ6hPhguVCmyKLSL1HUdtViE=</Password>
    <Address>11 Wolfson St, Holon</Address>
    <Latitude>32.0167</Latitude>
    <Longitude>34.7673</Longitude>
    <LargestDistance>6</LargestDistance>
    <DistanceType>Air</DistanceType>
  </Volunteer>
  <Volunteer>
    <Id>772281580</Id>
    <Name>Hila Shulman</Name>
    <Phone>0583292455</Phone>
    <Email>0583292455@gmail.com</Email>
    <IsActive>true</IsActive>
    <Role>Volunteer</Role>
    <Password>FanyQNx8w4CXZZS/WdyDLQUhThw0pZEU4WRekhYrnIQ=</Password>
    <Address>12 Bialik St, Ashdod</Address>
    <Latitude>31.8015</Latitude>
    <Longitude>34.6414</Longitude>
    <LargestDistance>4</LargestDistance>
    <DistanceType>Air</DistanceType>
  </Volunteer>
  <Volunteer>
    <Id>255225070</Id>
    <Name>Avigail Frankel</Name>
    <Phone>0583262639</Phone>
    <Email>0583262639@gmail.com</Email>
    <IsActive>true</IsActive>
    <Role>Volunteer</Role>
    <Password>6G/LqTOHP50UDBOYNA+17DkrM6NIC34W9/SunT6CIyk=</Password>
    <Address>17 Heichal Shlomo St, Haifa</Address>
    <Latitude>32.794</Latitude>
    <Longitude>34.9896</Longitude>
    <LargestDistance>3</LargestDistance>
    <DistanceType>Air</DistanceType>
  </Volunteer>
  <Volunteer>
    <Id>784139198</Id>
    <Name>Noam Cohen</Name>
    <Phone>0521122334</Phone>
    <Email>0521122334@gmail.com</Email>
    <IsActive>true</IsActive>
    <Role>Volunteer</Role>
    <Password>CTHwWCnrWaBfs3g0MW/pk3vx3ROvLDQeUi3zVx0pH2s=</Password>
    <Address>3 HaPalmach St, Tel Aviv</Address>
    <Latitude>32.0853</Latitude>
    <Longitude>34.7818</Longitude>
    <LargestDistance>7</LargestDistance>
    <DistanceType>Air</DistanceType>
  </Volunteer>
  <Volunteer>
    <Id>988936506</Id>
    <Name>Tamar Shapira</Name>
    <Phone>0534455667</Phone>
    <Email>0534455667@gmail.com</Email>
    <IsActive>true</IsActive>
    <Role>Volunteer</Role>
    <Password>VfgmNLozReFzSpIgewdPs2boTwz8zCcb82GmVjvto64=</Password>
    <Address>5 Herzl St, Jerusalem</Address>
    <Latitude>31.7719</Latitude>
    <Longitude>35.217</Longitude>
    <LargestDistance>6</LargestDistance>
    <DistanceType>Air</DistanceType>
  </Volunteer>
  <Volunteer>
    <Id>173524299</Id>
    <Name>Itai Levi</Name>
    <Phone>0509988776</Phone>
    <Email>0509988776@gmail.com</Email>
    <IsActive>true</IsActive>
    <Role>Volunteer</Role>
    <Password>mh28l8X+8nyjRmHPv2sy4QlGZv9wVYH9PBkzOFMdzpw=</Password>
    <Address>7 HaNegev St, Be'er Sheva</Address>
    <Latitude>31.2522</Latitude>
    <Longitude>34.7913</Longitude>
    <LargestDistance>1</LargestDistance>
    <DistanceType>Air</DistanceType>
  </Volunteer>
  <Volunteer>
    <Id>215140252</Id>
    <Name>Shira Katz</Name>
    <Phone>0543322110</Phone>
    <Email>0543322110@gmail.com</Email>
    <IsActive>true</IsActive>
    <Role>Volunteer</Role>
    <Password>/KnsLljnmSMLHKZ3lNvcQThqeqHBxmlu5slh89Q0oG8=</Password>
    <Address>15 Harav Kook St, Bnei Brak</Address>
    <Latitude>32.0833</Latitude>
    <Longitude>34.8333</Longitude>
    <LargestDistance>4</LargestDistance>
    <DistanceType>Air</DistanceType>
  </Volunteer>
  <Volunteer>
    <Id>643733876</Id>
    <Name>Elad Regev</Name>
    <Phone>0523344556</Phone>
    <Email>0523344556@gmail.com</Email>
    <IsActive>true</IsActive>
    <Role>Volunteer</Role>
    <Password>KdRdzOuZcHN9yusOs/h/QE+LIUNRLZfv3JBmtuwy2IM=</Password>
    <Address>22 Sheshet Hayamim St, Holon</Address>
    <Latitude>32.0167</Latitude>
    <Longitude>34.7667</Longitude>
    <LargestDistance>3</LargestDistance>
    <DistanceType>Air</DistanceType>
  </Volunteer>
  <Volunteer>
    <Id>966130320</Id>
    <Name>Maya Azulay</Name>
    <Phone>0502233445</Phone>
    <Email>0502233445@gmail.com</Email>
    <IsActive>true</IsActive>
    <Role>Volunteer</Role>
    <Password>bI0RCPJAzB+GhU8g3LgAA4hi5q8TXR+6MyLtV3kjoMM=</Password>
    <Address>26 Even Gvirol St, Ramat Gan</Address>
    <Latitude>32.068</Latitude>
    <Longitude>34.824</Longitude>
    <LargestDistance>0</LargestDistance>
    <DistanceType>Air</DistanceType>
  </Volunteer>
  <Volunteer>
    <Id>979896289</Id>
    <Name>Omer Harel</Name>
    <Phone>0556677889</Phone>
    <Email>0556677889@gmail.com</Email>
    <IsActive>true</IsActive>
    <Role>Volunteer</Role>
    <Password>Q32cX/CHWRcHIZGB6a771kyFs+3LjWSjfMZhjKftEQE=</Password>
    <Address>29 Begin Blvd, Petah Tikva</Address>
    <Latitude>32.0889</Latitude>
    <Longitude>34.8864</Longitude>
    <LargestDistance>3</LargestDistance>
    <DistanceType>Air</DistanceType>
  </Volunteer>
  <Volunteer>
    <Id>897958476</Id>
    <Name>Tal Hadad</Name>
    <Phone>0537788990</Phone>
    <Email>0537788990@gmail.com</Email>
    <IsActive>true</IsActive>
    <Role>Volunteer</Role>
    <Password>NUU+dI6S5WJp/YBLded4ch28Mvu2Yw//RAozujNuLEk=</Password>
    <Address>18 Menachem Begin Rd, Hadera</Address>
    <Latitude>32.437</Latitude>
    <Longitude>34.9196</Longitude>
    <LargestDistance>5</LargestDistance>
    <DistanceType>Air</DistanceType>
  </Volunteer>
  <Volunteer>
    <Id>576504955</Id>
    <Name>Yael Avraham</Name>
    <Phone>0584433221</Phone>
    <Email>0584433221@gmail.com</Email>
    <IsActive>true</IsActive>
    <Role>Volunteer</Role>
    <Password>UopDfRSXwV1puNqK8g9ZUUSCK/v0x2XhqZkkn6LjEng=</Password>
    <Address>8 HaHistadrut St, Bat Yam</Address>
    <Latitude>32.0171</Latitude>
    <Longitude>34.7454</Longitude>
    <LargestDistance>1</LargestDistance>
    <DistanceType>Air</DistanceType>
  </Volunteer>
  <Volunteer>
    <Id>275281590</Id>
    <Name>Amit Weiss</Name>
    <Phone>0541122113</Phone>
    <Email>0541122113@gmail.com</Email>
    <IsActive>true</IsActive>
    <Role>Volunteer</Role>
    <Password>Fh5OVZNF8fXAUZPDTVXmczBB5KQBv/5X79PasF3atTU=</Password>
    <Address>34 Levi Eshkol Blvd, Haifa</Address>
    <Latitude>32.794</Latitude>
    <Longitude>34.9896</Longitude>
    <LargestDistance>7</LargestDistance>
    <DistanceType>Air</DistanceType>
  </Volunteer>
  <Volunteer>
    <Id>457682805</Id>
    <Name>Eden Peretz</Name>
    <Phone>0523344567</Phone>
    <Email>0523344567@gmail.com</Email>
    <IsActive>true</IsActive>
    <Role>Volunteer</Role>
    <Password>JnHbte2WGVMeAsIA9fQTCF6OZWpga0qpB/fPWnq0QFk=</Password>
    <Address>16 Moshe Dayan St, Lod</Address>
    <Latitude>31.951</Latitude>
    <Longitude>34.8882</Longitude>
    <LargestDistance>1</LargestDistance>
    <DistanceType>Air</DistanceType>
  </Volunteer>
  <Volunteer>
    <Id>966113219</Id>
    <Name>Nir Barkai</Name>
    <Phone>0538899776</Phone>
    <Email>0538899776@gmail.com</Email>
    <IsActive>true</IsActive>
    <Role>Volunteer</Role>
    <Password>q3VMsQiZITv3GnCKZIZU+2J0/A00C1QUugaOtkzbcoU=</Password>
    <Address>7 Ben Gurion St, Rishon LeZion</Address>
    <Latitude>31.973</Latitude>
    <Longitude>34.7925</Longitude>
    <LargestDistance>6</LargestDistance>
    <DistanceType>Air</DistanceType>
  </Volunteer>
  <Volunteer>
    <Id>977205939</Id>
    <Name>Adi Tal</Name>
    <Phone>0547766554</Phone>
    <Email>0547766554@gmail.com</Email>
    <IsActive>true</IsActive>
    <Role>Volunteer</Role>
    <Password>9gVCAtqeYs1b49c3ZtCTKbZYrbEqnddSQCCs1EmE5PM=</Password>
    <Address>25 David Remez St, Netanya</Address>
    <Latitude>32.3215</Latitude>
    <Longitude>34.8532</Longitude>
    <LargestDistance>6</LargestDistance>
    <DistanceType>Air</DistanceType>
  </Volunteer>
  <Volunteer>
    <Id>320901176</Id>
    <Name>Roni Geva</Name>
    <Phone>0506677885</Phone>
    <Email>0506677885@gmail.com</Email>
    <IsActive>true</IsActive>
    <Role>Volunteer</Role>
    <Password>kSSp8quMgkFjE/RvEUDF5tfbWCDxw2MkWg2aEgZGMuw=</Password>
    <Address>19 Yehuda Halevi St, Ramat Hasharon</Address>
    <Latitude>32.146</Latitude>
    <Longitude>34.839</Longitude>
    <LargestDistance>5</LargestDistance>
    <DistanceType>Air</DistanceType>
  </Volunteer>
  <Volunteer>
    <Id>630364446</Id>
    <Name>Lior Maimon</Name>
    <Phone>0524455667</Phone>
    <Email>0524455667@gmail.com</Email>
    <IsActive>true</IsActive>
    <Role>Volunteer</Role>
    <Password>kFuN1pfOQxMebrFZanbte2cBLxp9zH+gFiXPFMskOOI=</Password>
    <Address>4 Pinsker St, Kiryat Ono</Address>
    <Latitude>32.05</Latitude>
    <Longitude>34.85</Longitude>
    <LargestDistance>7</LargestDistance>
    <DistanceType>Air</DistanceType>
  </Volunteer>
  <Volunteer>
    <Id>306148693</Id>
    <Name>Dana Michaeli</Name>
    <Phone>0539988776</Phone>
    <Email>0539988776@gmail.com</Email>
    <IsActive>true</IsActive>
    <Role>Volunteer</Role>
    <Password>RhK2ZJvO1I7HZcAUkVBWl6GxeMfQPDUwJz1S7KSNXxY=</Password>
    <Address>14 Yitzhak Sadeh St, Tiberias</Address>
    <Latitude>32.7922</Latitude>
    <Longitude>35.5312</Longitude>
    <LargestDistance>0</LargestDistance>
    <DistanceType>Air</DistanceType>
  </Volunteer>
  <Volunteer>
    <Id>113425433</Id>
    <Name>Gilad Peleg</Name>
    <Phone>0505566778</Phone>
    <Email>0505566778@gmail.com</Email>
    <IsActive>true</IsActive>
    <Role>Volunteer</Role>
    <Password>FKVwgxIK9uxMYpALuDKrhmYRW2qGicBJ8RD2h7s81qQ=</Password>
    <Address>6 Bar Ilan St, Jerusalem</Address>
    <Latitude>31.7719</Latitude>
    <Longitude>35.217</Longitude>
    <LargestDistance>4</LargestDistance>
    <DistanceType>Air</DistanceType>
  </Volunteer>
  <Volunteer>
    <Id>780303830</Id>
    <Name>Alon Zohar</Name>
    <Phone>0547788992</Phone>
    <Email>0547788992@gmail.com</Email>
    <IsActive>true</IsActive>
    <Role>Volunteer</Role>
    <Password>VdN+pngckIi2pB/uKeNLpWbtYkmLDD088KSzQJfBKNk=</Password>
    <Address>12 Hillel St, Nahariya</Address>
    <Latitude>33.0076</Latitude>
    <Longitude>35.0943</Longitude>
    <LargestDistance>3</LargestDistance>
    <DistanceType>Air</DistanceType>
  </Volunteer>
  <Volunteer>
    <Id>388336711</Id>
    <Name>Bar Shani</Name>
    <Phone>0551122334</Phone>
    <Email>0551122334@gmail.com</Email>
    <IsActive>true</IsActive>
    <Role>Volunteer</Role>
    <Password>PcKJpRG+DIODtFdTYwG2m6S9LR1km33yUATHgK5ewMM=</Password>
    <Address>5 Allenby St, Tel Aviv</Address>
    <Latitude>32.0671</Latitude>
    <Longitude>34.7672</Longitude>
    <LargestDistance>3</LargestDistance>
    <DistanceType>Air</DistanceType>
  </Volunteer>
  <Volunteer>
    <Id>289067134</Id>
    <Name>Inbar Halevi</Name>
    <Phone>0503322114</Phone>
    <Email>0503322114@gmail.com</Email>
    <IsActive>true</IsActive>
    <Role>Volunteer</Role>
    <Password>1CjpEsYOyQFU3sdJVmwqR4Nx28LFZARI81QZZYwflHw=</Password>
    <Address>3 Rambam St, Acre</Address>
    <Latitude>32.9236</Latitude>
    <Longitude>35.0717</Longitude>
    <LargestDistance>4</LargestDistance>
    <DistanceType>Air</DistanceType>
  </Volunteer>
  <Volunteer>
    <Id>469103485</Id>
    <Name>Yossi Golan</Name>
    <Phone>0526677880</Phone>
    <Email>0526677880@gmail.com</Email>
    <IsActive>true</IsActive>
    <Role>Volunteer</Role>
    <Password>3F9C4ZXITn7ebhd4hCBib/ZPeycHsmhWBaq224a7Wyw=</Password>
    <Address>11 HaDekel St, Modiin</Address>
    <Latitude>31.898</Latitude>
    <Longitude>35.018</Longitude>
    <LargestDistance>7</LargestDistance>
    <DistanceType>Air</DistanceType>
  </Volunteer>
  <Volunteer>
    <Id>468829718</Id>
    <Name>Hadar Shitrit</Name>
    <Phone>0534455990</Phone>
    <Email>0534455990@gmail.com</Email>
    <IsActive>true</IsActive>
    <Role>Volunteer</Role>
    <Password>OmOxWrLiCe2zpEAqN2416Elklb0bDdlnWeh1+qomgak=</Password>
    <Address>21 Ahad Ha'am St, Kfar Saba</Address>
    <Latitude>32.1803</Latitude>
    <Longitude>34.9066</Longitude>
    <LargestDistance>2</LargestDistance>
    <DistanceType>Air</DistanceType>
  </Volunteer>
  <Volunteer>
    <Id>519524565</Id>
    <Name>Liat Mor</Name>
    <Phone>0546655443</Phone>
    <Email>0546655443@gmail.com</Email>
    <IsActive>true</IsActive>
    <Role>Volunteer</Role>
    <Password>wI+x8FsbQb1tIK+k3P8cvSgfF5gfZrjXNeUsoiKXl6o=</Password>
    <Address>23 Dov Hoz St, Holon</Address>
    <Latitude>32.0167</Latitude>
    <Longitude>34.7667</Longitude>
    <LargestDistance>3</LargestDistance>
    <DistanceType>Air</DistanceType>
  </Volunteer>
  <Volunteer>
    <Id>182119834</Id>
    <Name>David Azulai</Name>
    <Phone>0508877665</Phone>
    <Email>0508877665@gmail.com</Email>
    <IsActive>true</IsActive>
    <Role>Volunteer</Role>
    <Password>tw5NvTRV2Y7vEOrPO2P595L7LXv9Z0jlCrfwfPx+hDs=</Password>
    <Address>30 Trumpeldor St, Beit Shemesh</Address>
    <Latitude>31.748</Latitude>
    <Longitude>34.9887</Longitude>
    <LargestDistance>1</LargestDistance>
    <DistanceType>Air</DistanceType>
  </Volunteer>
  <Volunteer>
    <Id>812539682</Id>
    <Name>Noga Dahan</Name>
    <Phone>0583322445</Phone>
    <Email>0583322445@gmail.com</Email>
    <IsActive>true</IsActive>
    <Role>Volunteer</Role>
    <Password>FVEPru8NSfuZvbiMYmmD6fi7CP3upSjTUeUKDXbYBoY=</Password>
    <Address>33 Hanassi St, Hadera</Address>
    <Latitude>32.437</Latitude>
    <Longitude>34.9196</Longitude>
    <LargestDistance>0</LargestDistance>
    <DistanceType>Air</DistanceType>
  </Volunteer>
  <Volunteer>
    <Id>432219467</Id>
    <Name>Sarit Levy</Name>
    <Phone>0547766885</Phone>
    <Email>0547766885@gmail.com</Email>
    <IsActive>true</IsActive>
    <Role>Volunteer</Role>
    <Password>rSBW5vHsa3rF0iglDUNGoHHBxPFtmrhxf+E4UaJLjcw=</Password>
    <Address>2 Herzl St, Rehovot</Address>
    <Latitude>31.8948</Latitude>
    <Longitude>34.8093</Longitude>
    <LargestDistance>1</LargestDistance>
    <DistanceType>Air</DistanceType>
  </Volunteer>
  <Volunteer>
    <Id>534449293</Id>
    <Name>Eyal Ron</Name>
    <Phone>0502299443</Phone>
    <Email>0502299443@gmail.com</Email>
    <IsActive>true</IsActive>
    <Role>Volunteer</Role>
    <Password>i1VaLZHP6dXDw5Z8aNrgZa4KMYqTjIdHNnRkTb84+3U=</Password>
    <Address>8 HaPalmach St, Afula</Address>
    <Latitude>32.607</Latitude>
    <Longitude>35.289</Longitude>
	  <LargestDistance>1</LargestDistance>
    <DistanceType>Air</DistanceType>
  </Volunteer>
  <Volunteer>
    <Id>447853540</Id>
    <Name>Ziv Nir</Name>
    <Phone>0529933771</Phone>
    <Email>0529933771@gmail.com</Email>
    <IsActive>true</IsActive>
    <Role>Volunteer</Role>
    <Password>C7TfE8FjHIdyrElXEQzP5LH7NP+YFGb2o9fE4GhGnCo=</Password>
    <Address>10 Jabotinsky St, Eilat</Address>
    <Latitude>29.5581</Latitude>
    <Longitude>34.9519</Longitude>
    <LargestDistance>0</LargestDistance>
    <DistanceType>Air</DistanceType>
  </Volunteer>
  <Volunteer>
    <Id>624138582</Id>
    <Name>Talia Ben-Ami</Name>
    <Phone>0531144775</Phone>
    <Email>0531144775@gmail.com</Email>
    <IsActive>true</IsActive>
    <Role>Volunteer</Role>
    <Password>vMdaudOp4g1mwbsx9qqqXAFmJXFfkCj4mFSOyuUD9e0=</Password>
    <Address>6 Beit Hillel St, Beersheba</Address>
    <Latitude>31.2518</Latitude>
    <Longitude>34.7913</Longitude>
    <LargestDistance>3</LargestDistance>
    <DistanceType>Air</DistanceType>
  </Volunteer>
  <Volunteer>
    <Id>721523009</Id>
    <Name>Ronit Barak</Name>
    <Phone>0554433211</Phone>
    <Email>0554433211@gmail.com</Email>
    <IsActive>true</IsActive>
    <Role>Volunteer</Role>
    <Password>IjXkbO72NUMYn0/w/r6d6YizQ0tBSFgnMaRWtq4u3Co=</Password>
    <Address>5 HaRav Herzog St, Givatayim</Address>
    <Latitude>32.0723</Latitude>
    <Longitude>34.812</Longitude>
    <LargestDistance>5</LargestDistance>
    <DistanceType>Air</DistanceType>
  </Volunteer>
  <Volunteer>
    <Id>107908584</Id>
    <Name>Lina Cohen</Name>
    <Phone>0547766901</Phone>
    <Email>0547766901@gmail.com</Email>
    <IsActive>true</IsActive>
    <Role>Volunteer</Role>
    <Password>HiOw60f7+i946qjaLvuNYzfzt7fV0N4K7631bPWBf5U=</Password>
    <Address>7 Menorah St, Ashkelon</Address>
    <Latitude>31.6695</Latitude>
    <Longitude>34.5715</Longitude>
    <LargestDistance>7</LargestDistance>
    <DistanceType>Air</DistanceType>
  </Volunteer>
  <Volunteer>
    <Id>832164289</Id>
    <Name>Ariel Morad</Name>
    <Phone>0583221100</Phone>
    <Email>0583221100@gmail.com</Email>
    <IsActive>true</IsActive>
    <Role>Volunteer</Role>
    <Password>UzaOI/D6S+xvSuFlIttGbezhWveR/D084vnlVxa3zDw=</Password>
    <Address>9 Hashalom Rd, Ra'anana</Address>
    <Latitude>32.1844</Latitude>
    <Longitude>34.8708</Longitude>
    <LargestDistance>5</LargestDistance>
    <DistanceType>Air</DistanceType>
  </Volunteer>
  <Volunteer>
    <Id>904425196</Id>
    <Name>Or Shahar</Name>
    <Phone>0501100223</Phone>
    <Email>0501100223@gmail.com</Email>
    <IsActive>true</IsActive>
    <Role>Volunteer</Role>
    <Password>ccFLlcMihWwzz+fDUuUeNQLPk4wi1JOnpHxbdrBCLmE=</Password>
    <Address>13 Nordau Blvd, Herzliya</Address>
    <Latitude>32.1663</Latitude>
    <Longitude>34.8433</Longitude>
    <LargestDistance>5</LargestDistance>
    <DistanceType>Air</DistanceType>
  </Volunteer>
  <Volunteer>
    <Id>327793949</Id>
    <Name>Talya Stern</Name>
    <Phone>0525544332</Phone>
    <Email>0525544332@gmail.com</Email>
    <IsActive>true</IsActive>
    <Role>Volunteer</Role>
    <Password>5OVYzLw+ujDLBSgYjodCEbwuENWdIAi27t1RVlXVq4c=</Password>
    <Address>4 Yehuda St, Bat Yam</Address>
    <Latitude>32.0171</Latitude>
    <Longitude>34.7454</Longitude>
    <LargestDistance>0</LargestDistance>
    <DistanceType>Air</DistanceType>
  </Volunteer>
  <Volunteer>
    <Id>600347918</Id>
    <Name>Galit Mashiach</Name>
    <Phone>0549988776</Phone>
    <Email>0549988776@gmail.com</Email>
    <IsActive>true</IsActive>
    <Role>Volunteer</Role>
    <Password>bvHCygZkq0NGb/JTUkVRuD4p6PrljqPXdEp9JOitQcg=</Password>
    <Address>6 Tchernichovsky St, Ramat Gan</Address>
    <Latitude>32.068</Latitude>
    <Longitude>34.824</Longitude>
    <LargestDistance>2</LargestDistance>
    <DistanceType>Air</DistanceType>
  </Volunteer>
</ArrayOfVolunteer>