<?xml version="1.0" encoding="utf-8"?>
<ArrayOfVolunteer>
  <Volunteer>
    <Id>204129563</Id>
    <Name>Lior Ben-David</Name>
    <Phone>0501234567</Phone>
    <Email>0501234567@gmail.com</Email>
    <IsActive>true</IsActive>
    <Role>Volunteer</Role>
    <Password>A1b@D2eF</Password>
    <Address>9 Weizman St, Tel Aviv, Israel</Address>
    <Latitude>32.1094</Latitude>
    <Longitude>34.78</Longitude>
    <LargestDistance>5</LargestDistance>
    <DistanceType>Air</DistanceType>
  </Volunteer>
  <Volunteer>
    <Id>322256197</Id>
    <Name>Batya Hirsch</Name>
    <Phone>0529876543</Phone>
    <Email>0529876543@gmail.com</Email>
    <IsActive>true</IsActive>
    <Role>Volunteer</Role>
    <Password>X3y#Z9aH</Password>
    <Address>40 Jabotinsky St, Petah Tikva, Israel</Address>
    <Latitude>32.085</Latitude>
    <Longitude>34.8778</Longitude>
    <LargestDistance>5</LargestDistance>
    <DistanceType>Air</DistanceType>
  </Volunteer>
  <Volunteer>
    <Id>298242325</Id>
    <Name>Shimon Farkash</Name>
    <Phone>0541239876</Phone>
    <Email>0541239876@gmail.com</Email>
    <IsActive>true</IsActive>
    <Role>Volunteer</Role>
    <Password>P@ssw0rD1</Password>
    <Address>Ein Kerem 5, Jerusalem, Israel</Address>
    <Latitude>31.7732</Latitude>
    <Longitude>35.2037</Longitude>
    <LargestDistance>2</LargestDistance>
    <DistanceType>Air</DistanceType>
  </Volunteer>
  <Volunteer>
    <Id>310759986</Id>
    <Name>Tzvi Berkovitz</Name>
    <Phone>0559871234</Phone>
    <Email>0559871234@gmail.com</Email>
    <IsActive>true</IsActive>
    <Role>Volunteer</Role>
    <Password>T#4oP@r7</Password>
    <Address>Tel Hashomer 6, Ramat Gan, Israel</Address>
    <Latitude>32.0735</Latitude>
    <Longitude>34.8011</Longitude>
    <LargestDistance>4</LargestDistance>
    <DistanceType>Air</DistanceType>
  </Volunteer>
  <Volunteer>
    <Id>368984742</Id>
    <Name>Meir Goldfarb</Name>
    <Phone>0533217654</Phone>
    <Email>0533217654@gmail.com</Email>
    <IsActive>true</IsActive>
    <Role>Volunteer</Role>
    <Password>M1n#0F8z</Password>
    <Address>20 Yirmiyahu St, Jerusalem, Israel</Address>
    <Latitude>31.7683</Latitude>
    <Longitude>35.1804</Longitude>
    <LargestDistance>6</LargestDistance>
    <DistanceType>Air</DistanceType>
  </Volunteer>
  <Volunteer>
    <Id>310026701</Id>
    <Name>Bat-Chen Shalom</Name>
    <Phone>0504561239</Phone>
    <Email>0504561239@gmail.com</Email>
    <IsActive>true</IsActive>
    <Role>Volunteer</Role>
    <Password>G#tX9jQ2</Password>
    <Address>128 Kaplan St, Tel Aviv, Israel</Address>
    <Latitude>32.081</Latitude>
    <Longitude>34.7707</Longitude>
    <LargestDistance>2</LargestDistance>
    <DistanceType>Air</DistanceType>
  </Volunteer>
  <Volunteer>
    <Id>342383687</Id>
    <Name>Yonatan Spector</Name>
    <Phone>0548551329</Phone>
    <Email>0548551329@gmail.com</Email>
    <IsActive>true</IsActive>
    <Role>Volunteer</Role>
    <Password>L8!mT9uB</Password>
    <Address>65 Jabotinsky St, Kfar Saba, Israel</Address>
    <Latitude>32.182</Latitude>
    <Longitude>34.8999</Longitude>
    <LargestDistance>5</LargestDistance>
    <DistanceType>Air</DistanceType>
  </Volunteer>
  <Volunteer>
    <Id>208811286</Id>
    <Name>Erez Gur</Name>
    <Phone>0548425138</Phone>
    <Email>0548425138@gmail.com</Email>
    <IsActive>true</IsActive>
    <Role>Volunteer</Role>
    <Password>D9v@Zq7X</Password>
    <Address>Barzilai 6, Ashkelon, Israel</Address>
    <Latitude>31.67</Latitude>
    <Longitude>34.5675</Longitude>
    <LargestDistance>1</LargestDistance>
    <DistanceType>Air</DistanceType>
  </Volunteer>
  <Volunteer>
    <Id>350629630</Id>
    <Name>Gal Zohar</Name>
    <Phone>0583282450</Phone>
    <Email>0583282450@gmail.com</Email>
    <IsActive>true</IsActive>
    <Role>Volunteer</Role>
    <Password>B5a#cG3e</Password>
    <Address>Ziv 6, Safed, Israel</Address>
    <Latitude>32.9674</Latitude>
    <Longitude>35.4884</Longitude>
    <LargestDistance>4</LargestDistance>
    <DistanceType>Air</DistanceType>
  </Volunteer>
  <Volunteer>
    <Id>234210666</Id>
    <Name>Rachel Nachman</Name>
    <Phone>0583232333</Phone>
    <Email>0583232333@gmail.com</Email>
    <IsActive>true</IsActive>
    <Role>Volunteer</Role>
    <Password>K#p9J1xQ</Password>
    <Address>11 Beilinson St, Tel Aviv, Israel</Address>
    <Latitude>32.084</Latitude>
    <Longitude>34.7746</Longitude>
    <LargestDistance>4</LargestDistance>
    <DistanceType>Air</DistanceType>
  </Volunteer>
  <Volunteer>
    <Id>335150608</Id>
    <Name>Yarden Levy</Name>
    <Phone>0548482197</Phone>
    <Email>0548482197@gmail.com</Email>
    <IsActive>true</IsActive>
    <Role>Volunteer</Role>
    <Password>Q8@tW5oP</Password>
    <Address>13 Azrieli St, Netanya, Israel</Address>
    <Latitude>32.3143</Latitude>
    <Longitude>34.8446</Longitude>
    <LargestDistance>7</LargestDistance>
    <DistanceType>Air</DistanceType>
  </Volunteer>
  <Volunteer>
    <Id>303705006</Id>
    <Name>Doron Klein</Name>
    <Phone>0583265120</Phone>
    <Email>0583265120@gmail.com</Email>
    <IsActive>true</IsActive>
    <Role>Volunteer</Role>
    <Password>R3v@C9fX</Password>
    <Address>2 Kalay St, Haifa, Israel</Address>
    <Latitude>32.7872</Latitude>
    <Longitude>34.9796</Longitude>
    <LargestDistance>1</LargestDistance>
    <DistanceType>Air</DistanceType>
  </Volunteer>
  <Volunteer>
    <Id>282757241</Id>
    <Name>Yulia Shaked</Name>
    <Phone>0548533173</Phone>
    <Email>0548533173@gmail.com</Email>
    <IsActive>true</IsActive>
    <Role>Volunteer</Role>
    <Password>S4z#D8oY</Password>
    <Address>11 Wolfson St, Holon, Israel</Address>
    <Latitude>32.0167</Latitude>
    <Longitude>34.7673</Longitude>
    <LargestDistance>0</LargestDistance>
    <DistanceType>Air</DistanceType>
  </Volunteer>
  <Volunteer>
    <Id>345833474</Id>
    <Name>Hila Shulman</Name>
    <Phone>0583292455</Phone>
    <Email>0583292455@gmail.com</Email>
    <IsActive>true</IsActive>
    <Role>Volunteer</Role>
    <Password>N7f#L9pB</Password>
    <Address>12 Bialik St, Ashdod, Israel</Address>
    <Latitude>31.8015</Latitude>
    <Longitude>34.6414</Longitude>
    <LargestDistance>6</LargestDistance>
    <DistanceType>Air</DistanceType>
  </Volunteer>
  <Volunteer>
    <Id>349752599</Id>
    <Name>Avigail Frankel</Name>
    <Phone>0583262639</Phone>
    <Email>0583262639@gmail.com</Email>
    <IsActive>true</IsActive>
    <Role>Volunteer</Role>
    <Password>C3uZ#hT1</Password>
    <Address>17 Heichal Shlomo St, Haifa, Israel</Address>
    <Latitude>32.7682</Latitude>
    <Longitude>34.9762</Longitude>
    <LargestDistance>2</LargestDistance>
    <DistanceType>Air</DistanceType>
  </Volunteer>
  <Volunteer>
    <Id>349733599</Id>
    <Name>Avigail Frank</Name>
    <Phone>0583262639</Phone>
    <Email>0583262639@gmail.com</Email>
    <IsActive>true</IsActive>
    <Role>Manager</Role>
    <Password>C3uZ#hT2</Password>
    <Address>17 Heichal Shlomo St, Haifa, Israel</Address>
    <Latitude>32.7682</Latitude>
    <Longitude>34.9762</Longitude>
    <LargestDistance>2</LargestDistance>
    <DistanceType>Air</DistanceType>
  </Volunteer>
  <Volunteer>
    <Id>328178371</Id>
    <Name>aa</Name>
    <Phone>0548551329</Phone>
    <Email>a@gmail.com</Email>
    <IsActive>true</IsActive>
    <Role>Manager</Role>
    <Password>zGsNLt/FRX6LwGv7IDfy1/HbMekQTl723Pw2z698uGc=</Password>
    <Address>druk</Address>
    <Latitude>32</Latitude>
    <Longitude>35</Longitude>
    <LargestDistance>10</LargestDistance>
    <DistanceType>Air</DistanceType>
  </Volunteer>
</ArrayOfVolunteer>