<?xml version="1.0" encoding="utf-8"?>
<ArrayOfVolunteer>
  <Volunteer>
    <Id>215553504</Id>
    <Name>as</Name>
    <Phone>0583282450</Phone>
    <Email>ayelet2450@gmail.com</Email>
    <IsActive>true</IsActive>
    <Role>Manager</Role>
    <Password>zGsNLt/FRX6LwGv7IDfy1/HbMekQTl723Pw2z698uGc=</Password>
    <Address>druk 58 ramat shlomo jerusalem israel</Address>
    <Latitude>31.8139395</Latitude>
    <Longitude>35.216089</Longitude>
    <LargestDistance>7</LargestDistance>
    <DistanceType>Walk</DistanceType>
  </Volunteer>
  <Volunteer>
    <Id>738970391</Id>
    <Name>Lior Ben-David</Name>
    <Phone>0501234567</Phone>
    <Email>0501234567@gmail.com</Email>
    <IsActive>true</IsActive>
    <Role>Volunteer</Role>
    <Password>x5lRirYWFwUTj0WNcQraHd2jdOBmaEXm51rbsW9AdPc=</Password>
    <Address>9 Weizman Tel Aviv Israel</Address>
    <Latitude>32.1094</Latitude>
    <Longitude>34.78</Longitude>
    <LargestDistance>0</LargestDistance>
    <DistanceType>Air</DistanceType>
  </Volunteer>
  <Volunteer>
    <Id>332430677</Id>
    <Name>Batya Hirsch</Name>
    <Phone>0529876543</Phone>
    <Email>0529876543@gmail.com</Email>
    <IsActive>true</IsActive>
    <Role>Volunteer</Role>
    <Password>FxmBjt4wiWfyJuUMXoRsqOQyq+ho1+I/OAMfYhi3STk=</Password>
    <Address>40 Jabotinsky Petah Tikva Israel</Address>
    <Latitude>32.085</Latitude>
    <Longitude>34.8778</Longitude>
    <LargestDistance>4</LargestDistance>
    <DistanceType>Air</DistanceType>
  </Volunteer>
  <Volunteer>
    <Id>530642347</Id>
    <Name>Shimon Farkash</Name>
    <Phone>0541239876</Phone>
    <Email>0541239876@gmail.com</Email>
    <IsActive>true</IsActive>
    <Role>Volunteer</Role>
    <Password>dbta7tKnDujJnIHxb341850a33JNfhc2PZIX7xjWXfY=</Password>
    <Address>Ein Kerem 5 Jerusalem Israel</Address>
    <Latitude>31.7732</Latitude>
    <Longitude>35.2037</Longitude>
    <LargestDistance>6</LargestDistance>
    <DistanceType>Air</DistanceType>
  </Volunteer>
  <Volunteer>
    <Id>355211236</Id>
    <Name>Tzvi Berkovitz</Name>
    <Phone>0559871234</Phone>
    <Email>0559871234@gmail.com</Email>
    <IsActive>true</IsActive>
    <Role>Volunteer</Role>
    <Password>d9rGBZ+Xx/L/QVgYv1DYbEUvFFRhRJNOFA+0zaCFW60=</Password>
    <Address>Tel Hashomer 6 Ramat Gan Israel</Address>
    <Latitude>32.0735</Latitude>
    <Longitude>34.8011</Longitude>
    <LargestDistance>2</LargestDistance>
    <DistanceType>Air</DistanceType>
  </Volunteer>
  <Volunteer>
    <Id>389448192</Id>
    <Name>Meir Goldfarb</Name>
    <Phone>0533217654</Phone>
    <Email>0533217654@gmail.com</Email>
    <IsActive>true</IsActive>
    <Role>Volunteer</Role>
    <Password>KHyIZM94DuQAejOVLhTnRRQQSfdxFWgL0QKvQOVq488=</Password>
    <Address>20 Yirmiyahu Jerusalem Israel</Address>
    <Latitude>31.7683</Latitude>
    <Longitude>35.1804</Longitude>
    <LargestDistance>7</LargestDistance>
    <DistanceType>Air</DistanceType>
  </Volunteer>
  <Volunteer>
    <Id>978114536</Id>
    <Name>Bat-Chen Shalom</Name>
    <Phone>0504561239</Phone>
    <Email>0504561239@gmail.com</Email>
    <IsActive>true</IsActive>
    <Role>Volunteer</Role>
    <Password>kpIyVnw1sdZmOYGnlJy6i058okSXHJw6RTElPFQYNRo=</Password>
    <Address>128 Kaplan Tel Aviv Israel</Address>
    <Latitude>32.081</Latitude>
    <Longitude>34.7707</Longitude>
    <LargestDistance>0</LargestDistance>
    <DistanceType>Air</DistanceType>
  </Volunteer>
  <Volunteer>
    <Id>412380081</Id>
    <Name>Yonatan Spector</Name>
    <Phone>0548551329</Phone>
    <Email>0548551329@gmail.com</Email>
    <IsActive>true</IsActive>
    <Role>Volunteer</Role>
    <Password>kPpyqgkd7gJFTyw4pGdVsj7xZ1PqVWbnaMRjQkh+dno=</Password>
    <Address>65 Jabotinsky Kfar Saba Israel</Address>
    <Latitude>32.182</Latitude>
    <Longitude>34.8999</Longitude>
    <LargestDistance>5</LargestDistance>
    <DistanceType>Air</DistanceType>
  </Volunteer>
  <Volunteer>
    <Id>754677250</Id>
    <Name>Erez Gur</Name>
    <Phone>0548425138</Phone>
    <Email>0548425138@gmail.com</Email>
    <IsActive>true</IsActive>
    <Role>Volunteer</Role>
    <Password>bxI04laZuRbark2H+NmXyOnzsvyqof4afuG1brseMNU=</Password>
    <Address>Barzilai 6 Ashkelon Israel</Address>
    <Latitude>31.67</Latitude>
    <Longitude>34.5675</Longitude>
    <LargestDistance>5</LargestDistance>
    <DistanceType>Air</DistanceType>
  </Volunteer>
  <Volunteer>
    <Id>943905828</Id>
    <Name>Gal Zohar</Name>
    <Phone>0583282450</Phone>
    <Email>0583282450@gmail.com</Email>
    <IsActive>true</IsActive>
    <Role>Volunteer</Role>
    <Password>/q1exlDSPegFqt4YPSUrICms9Xxz58B3QfAa21Ishzs=</Password>
    <Address>Ziv 6 Safed Israel</Address>
    <Latitude>32.9674</Latitude>
    <Longitude>35.4884</Longitude>
    <LargestDistance>1</LargestDistance>
    <DistanceType>Air</DistanceType>
  </Volunteer>
  <Volunteer>
    <Id>191867662</Id>
    <Name>Rachel Nachman</Name>
    <Phone>0583232333</Phone>
    <Email>0583232333@gmail.com</Email>
    <IsActive>true</IsActive>
    <Role>Volunteer</Role>
    <Password>bJ8lAzHXyobaAjaAVW1zYV0CIKJuIaw3ufM1qrLxkPU=</Password>
    <Address>11 Beilinson Tel Aviv Israel</Address>
    <Latitude>32.084</Latitude>
    <Longitude>34.7746</Longitude>
    <LargestDistance>2</LargestDistance>
    <DistanceType>Air</DistanceType>
  </Volunteer>
  <Volunteer>
    <Id>297946709</Id>
    <Name>Yarden Levy</Name>
    <Phone>0548482197</Phone>
    <Email>0548482197@gmail.com</Email>
    <IsActive>true</IsActive>
    <Role>Volunteer</Role>
    <Password>3lgLs8Fi9c0ZY/7nfw80ZsNjnSVgMVIUkBQ3z1O+3Jo=</Password>
    <Address>13 Azrieli St Netanya Israel</Address>
    <Latitude>32.3143</Latitude>
    <Longitude>34.8446</Longitude>
    <LargestDistance>4</LargestDistance>
    <DistanceType>Air</DistanceType>
  </Volunteer>
  <Volunteer>
    <Id>668871031</Id>
    <Name>Doron Klein</Name>
    <Phone>0583265120</Phone>
    <Email>0583265120@gmail.com</Email>
    <IsActive>true</IsActive>
    <Role>Volunteer</Role>
    <Password>kn1pxdFy5DoLRdmOlfzIia3EiNmOu9q0kIxSAfB1OFQ=</Password>
    <Address>2 Kalay Haifa Israel</Address>
    <Latitude>32.7872</Latitude>
    <Longitude>34.9796</Longitude>
    <LargestDistance>0</LargestDistance>
    <DistanceType>Air</DistanceType>
  </Volunteer>
  <Volunteer>
    <Id>851301945</Id>
    <Name>Hila Shulman</Name>
    <Phone>0583292455</Phone>
    <Email>0583292455@gmail.com</Email>
    <IsActive>true</IsActive>
    <Role>Volunteer</Role>
    <Password>FanyQNx8w4CXZZS/WdyDLQUhThw0pZEU4WRekhYrnIQ=</Password>
    <Address>12 Bialik Ashdod Israel</Address>
    <Latitude>31.8015</Latitude>
    <Longitude>34.6414</Longitude>
    <LargestDistance>0</LargestDistance>
    <DistanceType>Air</DistanceType>
  </Volunteer>
  <Volunteer>
    <Id>881755797</Id>
    <Name>Avigail Frankel</Name>
    <Phone>0583262639</Phone>
    <Email>0583262639@gmail.com</Email>
    <IsActive>true</IsActive>
    <Role>Volunteer</Role>
    <Password>6G/LqTOHP50UDBOYNA+17DkrM6NIC34W9/SunT6CIyk=</Password>
    <Address>17 Heichal Shlomo Haifa Israel</Address>
    <Latitude>32.7682</Latitude>
    <Longitude>34.9762</Longitude>
    <LargestDistance>4</LargestDistance>
    <DistanceType>Air</DistanceType>
  </Volunteer>
  <Volunteer>
    <Id>326772191</Id>
    <Name>dan</Name>
    <Phone>0583282450</Phone>
    <Email>ayelet2450@gmail.com</Email>
    <IsActive>true</IsActive>
    <Role>Manager</Role>
    <Password>zGsNLt/FRX6LwGv7IDfy1/HbMekQTl723Pw2z698uGc=</Password>
    <Address>druk 58 ramat shlomo jerusalem israel</Address>
    <Latitude>31.8139395</Latitude>
    <Longitude>35.216089</Longitude>
    <LargestDistance>7</LargestDistance>
    <DistanceType>Drive</DistanceType>
  </Volunteer>
  <Volunteer>
    <Id>215243353</Id>
    <Name>adi</Name>
    <Phone>0556771603</Phone>
    <Email>ayelet23@gmail.com</Email>
    <IsActive>true</IsActive>
    <Role>Volunteer</Role>
    <Password>rN2ow09Ng7UGnjnek31/sOzzG2768m5OU1EF+eI/BiY=</Password>
    <Address>druk 58 ramat shlomo jerusalem israel</Address>
    <Latitude>31.8139395</Latitude>
    <Longitude>35.216089</Longitude>
    <LargestDistance>5</LargestDistance>
    <DistanceType>Drive</DistanceType>
  </Volunteer>
  <Volunteer>
    <Id>328265640</Id>
    <Name>pnina</Name>
    <Phone>0583232333</Phone>
    <Email>aer@gmail.com</Email>
    <IsActive>true</IsActive>
    <Role>Volunteer</Role>
    <Password>a0b/puGr2gw3ZzutgCVOmwKyAiV6+KVC3PbXLeQ4JTk=</Password>
    <Address>druk 48 ramat shlomo jerusalem israel</Address>
    <Latitude>31.8125223</Latitude>
    <Longitude>35.2142696</Longitude>
    <LargestDistance>5</LargestDistance>
    <DistanceType>Drive</DistanceType>
  </Volunteer>
  <Volunteer>
    <Id>328304944</Id>
    <Name>aaaaaaaaaaaaaaaa</Name>
    <Phone>0583282456</Phone>
    <Email>aaaa@gmail.com</Email>
    <IsActive>true</IsActive>
    <Role>Volunteer</Role>
    <Password>a0b/puGr2gw3ZzutgCVOmwKyAiV6+KVC3PbXLeQ4JTk=</Password>
    <Address>druk 56 ramat shlomo jerusalem israel</Address>
    <Latitude>31.8138106</Latitude>
    <Longitude>35.2158452</Longitude>
    <LargestDistance>5</LargestDistance>
    <DistanceType>Drive</DistanceType>
  </Volunteer>
  <Volunteer>
    <Id>328268149</Id>
    <Name>bbbbbbbbbbbb</Name>
    <Phone>0583282459</Phone>
    <Email>bbbbbb@gmail.com</Email>
    <IsActive>true</IsActive>
    <Role>Volunteer</Role>
    <Password>a0b/puGr2gw3ZzutgCVOmwKyAiV6+KVC3PbXLeQ4JTk=</Password>
    <Address>druk 81 ramat shlomo jerusalem israel</Address>
    <Latitude>31.814525</Latitude>
    <Longitude>35.2167089</Longitude>
    <LargestDistance>10</LargestDistance>
    <DistanceType>Walk</DistanceType>
  </Volunteer>
  <Volunteer>
    <Id>327605853</Id>
    <Name>bracha</Name>
    <Phone>0548551329</Phone>
    <Email>bracharosenfeld@gmail.com</Email>
    <IsActive>false</IsActive>
    <Role>Volunteer</Role>
    <Password>MShOiA+wdc2e/XMbgvotgr3ppqwLPzgh0Cu13IA37Gg=</Password>
    <Address>druk 58 ramat shlomo jerusalem israel</Address>
    <Latitude>31.8139395</Latitude>
    <Longitude>35.216089</Longitude>
    <LargestDistance>1</LargestDistance>
    <DistanceType>Walk</DistanceType>
  </Volunteer>
  <Volunteer>
    <Id>116763483</Id>
    <Name>Yulia Shaked</Name>
    <Phone>0548533173</Phone>
    <Email>0548533173@gmail.com</Email>
    <IsActive>true</IsActive>
    <Role>Volunteer</Role>
    <Password>r2H+rGkXpxNHBaVEwc6V9s0BZHCKmSqWdTPpTMgRHw8=</Password>
    <Address>11 Wolfson Holon Israel</Address>
    <Latitude>32.0174754</Latitude>
    <Longitude>34.7819525</Longitude>
    <LargestDistance>10</LargestDistance>
    <DistanceType>Drive</DistanceType>
  </Volunteer>
  <Volunteer>
    <Id>329236087</Id>
    <Name>Ayelet</Name>
    <Phone>0583282451</Phone>
    <Email>ayelt2450@gmail.com</Email>
    <IsActive>true</IsActive>
    <Role>Volunteer</Role>
    <Password>FNrVw1R4TdWaU067GSFpKt0SYjdbR893aPpPHbq7vV0=</Password>
    <Address>druk 58 ramat shlomo jerusalem israel</Address>
    <Latitude>31.8139395</Latitude>
    <Longitude>35.216089</Longitude>
    <LargestDistance>3</LargestDistance>
    <DistanceType>Drive</DistanceType>
  </Volunteer>
</ArrayOfVolunteer>